[
  {
    "img": "eb7f9045-442f-4ba4-8372-f5fbd3cae8cd.jpg",
    "coordinates": [ 47.2122468,-1.5535236 ],
    "location": "Skate park Hôtel Dieu",
    "link": "https://goo.gl/maps/aXHMNvDtrDSDgQMHA",
    "city": "Nantes",
    "postalcode": "44000",
    "country": "France"
  },
  {
    "img": "5b1ef630-c7bb-4c0c-a72e-b4f183b2e64e.jpg",
    "coordinates": [ 47.2095106,-1.5501264 ],
    "name": "11 Rue Marmontel",
    "link": "https://goo.gl/maps/ZrSou5t1aaGwnjUM7",
    "city": "Nantes",
    "postalcode": "44000",
    "country": "France"
  },
  {
    "img": "54cb43c5-0c62-444f-8c28-57b630c06bf7.jpg",
    "coordinates": [ 47.2073513,-1.5483304 ],
    "name": "Parkour park des berges",
    "link": "https://goo.gl/maps/Fr7iqAcLNwoC9Q6k9",
    "city": "Nantes",
    "postalcode": "44200",
    "country": "France"
  },
  {
    "img": "71e961b8-bcad-47d4-bcd2-dfd35facd1ea.jpg",
    "coordinates": [ 47.1847648,-1.5584284 ],
    "location": "24 Avenue de Bretagne",
    "link": "https://goo.gl/maps/qEaUETv9DAW2cM5q6",
    "city": "Rezé",
    "postalcode": "44400",
    "country": "France"
  },
  {
    "img": "6b8b15aa-fb39-410b-ac01-47a5bc966eab.jpg",
    "coordinates": [ 47.1956547,-1.5507543 ],
    "location": "2 Rue des Chevaliers",
    "link": "https://goo.gl/maps/EkHac8PsPfP65NWd8",
    "city": "Rezé",
    "postalcode": "44400",
    "country": "France"
  },
  {
    "img": "131f3d9c-efd5-49d9-9875-2b88959421d8.jpg",
    "coordinates": [ 47.2015549,-1.551977 ],
    "location": "33 Boulevard Benoni Goullin",
    "link": "https://goo.gl/maps/ah24FngR1AzT98Ht9",
    "city": "Nantes",
    "postalcode": "44200",
    "country": "France"
  },
  {
    "img": "551e9b3d-b21b-4e6c-9334-515b524d22c2.jpg",
    "coordinates": [ 47.2145523,-1.557353 ],
    "location": "9 Rue du Vieil Hôpital",
    "link": "https://goo.gl/maps/AyNpjyD7r9xgTrUF9",
    "city": "Nantes",
    "postalcode": "44000",
    "country": "France"
  },
  {
    "img": "c929e1cb-04c1-4ca6-8aa1-4edf44082238.jpg",
    "coordinates": [ 47.2108494,-1.5652746 ],
    "location": "3 Rue d'Ancin",
    "link": "https://goo.gl/maps/cu33ijTbPxJE8qLq7",
    "city": "Nantes",
    "postalcode": "44000",
    "country": "France"
  },
  {
    "img": "b2174fb2-f8ee-4bab-bb9e-33bd12457ae4.jpg",
    "coordinates": [ 47.2107874,-1.5657412 ],
    "location": "31 Rue de l'Héronnière",
    "link": "https://goo.gl/maps/wyJor95VatdBAT4J9",
    "city": "Nantes",
    "postalcode": "44000",
    "country": "France"
  },
  {
    "img": "96cdf2c2-fdcd-4148-a133-4454bb062826.jpg",
    "coordinates": [ 47.2142744,-1.5677471 ],
    "location": "1 Rue de la Galissonnière",
    "link": "https://goo.gl/maps/RtfUyUFFghES4rxC8",
    "city": "Nantes",
    "postalcode": "44000",
    "country": "France"
  },
  {
    "img": "cc7a48a3-fab5-483d-b1ba-65ea886dd10c.jpg",
    "coordinates": [ 47.2047397,-1.6078849 ],
    "location": "4 Pl. des Lauriers",
    "link": "https://goo.gl/maps/MY2fwR7R7ax3P2nN6",
    "city": "Nantes",
    "postalcode": "44100",
    "country": "France"
  }
]